[
    {
        "address": "4740 6th Avenue Southeast",
        "city": "Aberdeen",
        "iata_code": "ABR ",
        "icao_code": "KABR",
        "id": 0,
        "latitude": 45.453457,
        "longitude": -98.417725,
        "name": "Aberdeen Regional Airport",
        "nearest_cities": [],
        "nearest_parks": [],
        "phone": "+1 605-626-7020",
        "state": "South Dakota",
        "website": "http://www.aberdeenregionalairport.us/",
        "zip_code": "57401"
    },
    {
        "address": "2933 Airport Boulevard",
        "city": "Abilene",
        "iata_code": "ABI",
        "icao_code": "KABI",
        "id": 1,
        "latitude": 32.411896,
        "longitude": -99.680046,
        "name": "Abilene Regional Airport",
        "nearest_cities": [],
        "nearest_parks": [],
        "phone": "+1 325-676-6367",
        "state": "Texas",
        "website": "http://iflyabi.com/",
        "zip_code": "79602"
    },
    {
        "address": " ",
        "city": "Adak",
        "iata_code": "ADK",
        "icao_code": "PADK",
        "id": 2,
        "latitude": 51.881317,
        "longitude": -176.64822,
        "name": "Adak Airport",
        "nearest_cities": [],
        "nearest_parks": [],
        "phone": "+1 907-592-4500",
        "state": "Alaska",
        "website": "https://adak-ak.us/",
        "zip_code": "99546"
    },
    {
        "address": " ",
        "city": "Akiachak",
        "iata_code": "KKI",
        "icao_code": "",
        "id": 3,
        "latitude": 60.904533,
        "longitude": -161.42091,
        "name": "Akiachak Airport (FAA: Z13)",
        "nearest_cities": [],
        "nearest_parks": [],
        "phone": "+1 907-269-0747",
        "state": "Alaska",
        "website": "https://nfdc.faa.gov/nfdcApps/airportLookup/airportDisplay.jsp?category=nasr&airportId=Z13",
        "zip_code": "99551"
    },
    {
        "address": " ",
        "city": "Akiak",
        "iata_code": "AKI",
        "icao_code": "PFAK",
        "id": 4,
        "latitude": 60.902473,
        "longitude": -161.23122,
        "name": "Akiak Airport",
        "nearest_cities": [],
        "nearest_parks": [],
        "phone": "+1 907-543-2495",
        "state": "Alaska",
        "website": "https://nfdc.faa.gov/nfdcApps/services/ajv5/airportDisplay.jsp?airportId=aki",
        "zip_code": "99552"
    },
    {
        "address": "5400 Lauby Road",
        "city": "North Canton",
        "iata_code": "CAK",
        "icao_code": "KCAK",
        "id": 5,
        "latitude": 40.91538,
        "longitude": -81.44189,
        "name": "Akron-Canton Airport",
        "nearest_cities": [],
        "nearest_parks": [],
        "phone": "+1 888-434-2359",
        "state": "Ohio",
        "website": "http://www.akroncantonairport.com/",
        "zip_code": "44720"
    },
    {
        "address": " ",
        "city": "",
        "iata_code": "KQA",
        "icao_code": "",
        "id": 6,
        "latitude": 0,
        "longitude": 0,
        "name": "Akutan Seaplane Base",
        "nearest_cities": [],
        "nearest_parks": [],
        "phone": "",
        "state": "",
        "website": "",
        "zip_code": ""
    },
    {
        "address": " ",
        "city": "Alakanuk",
        "iata_code": "AUK",
        "icao_code": "",
        "id": 7,
        "latitude": 62.68,
        "longitude": -164.66,
        "name": "Alakanuk Airport",
        "nearest_cities": [],
        "nearest_parks": [],
        "phone": "",
        "state": "Alaska",
        "website": "",
        "zip_code": "99554"
    },
    {
        "address": "3500 Airport Road",
        "city": "Alamogordo",
        "iata_code": "ALM",
        "icao_code": "KALM",
        "id": 8,
        "latitude": 32.839844,
        "longitude": -105.99398,
        "name": "Alamogordo\u2013White Sands Regional Airport",
        "nearest_cities": [],
        "nearest_parks": [],
        "phone": "+1 575-439-4110",
        "state": "New Mexico",
        "website": "http://ci.alamogordo.nm.us/",
        "zip_code": "88310"
    },
    {
        "address": "2490 State Avenue",
        "city": "Alamosa",
        "iata_code": "ALS",
        "icao_code": "KALS",
        "id": 9,
        "latitude": 37.443848,
        "longitude": -105.86451,
        "name": "San Luis Valley Regional Airport",
        "nearest_cities": [],
        "nearest_parks": [],
        "phone": "+1 719-589-1138",
        "state": "Colorado",
        "website": "http://www.sanluisvalleyairport.org/",
        "zip_code": "81101"
    },
    {
        "address": " Albany Shaker Road",
        "city": "",
        "iata_code": "ALB",
        "icao_code": "KALB",
        "id": 10,
        "latitude": 42.74871,
        "longitude": -73.8055,
        "name": "Albany International Airport",
        "nearest_cities": [],
        "nearest_parks": [],
        "phone": "+1 518-242-2200",
        "state": "New York",
        "website": "http://www.albanyairport.com/",
        "zip_code": ""
    },
    {
        "address": "5695 Southwest Airport Avenue",
        "city": "Corvallis",
        "iata_code": "CVO",
        "icao_code": "KCVO",
        "id": 11,
        "latitude": 44.497158,
        "longitude": -123.28679,
        "name": "Corvallis Municipal Airport",
        "nearest_cities": [],
        "nearest_parks": [],
        "phone": "+1 541-766-6783",
        "state": "Oregon",
        "website": "http://www.corvallisoregon.gov/",
        "zip_code": "97333"
    },
    {
        "address": "2200 Sunport Blvd",
        "city": "Albuquerque",
        "iata_code": "ABQ",
        "icao_code": "KABQ",
        "id": 13,
        "latitude": 35.043335,
        "longitude": -106.61291,
        "name": "Albuquerque International Sunport",
        "nearest_cities": [],
        "nearest_parks": [],
        "phone": "+1 505-244-7700",
        "state": "New Mexico",
        "website": "http://www.cabq.gov/airport/",
        "zip_code": "87106"
    },
    {
        "address": " ",
        "city": "Aleknagik",
        "iata_code": "WKK",
        "icao_code": "",
        "id": 14,
        "latitude": 59.282784,
        "longitude": -158.6178,
        "name": "Aleknagik Airport (FAA: 5A8)",
        "nearest_cities": [],
        "nearest_parks": [],
        "phone": "",
        "state": "Alaska",
        "website": "",
        "zip_code": "99555"
    },
    {
        "address": "1100 Frank Andrews Boulevard",
        "city": "Alexandria",
        "iata_code": "AEX",
        "icao_code": "KAEX",
        "id": 15,
        "latitude": 31.327412,
        "longitude": -92.54519,
        "name": "Alexandria International Airport",
        "nearest_cities": [],
        "nearest_parks": [],
        "phone": "+1 318-449-3504",
        "state": "Louisiana",
        "website": "http://www.englandairpark.org/aex",
        "zip_code": "71303"
    },
    {
        "address": " ",
        "city": "Allakaket",
        "iata_code": "AET",
        "icao_code": "PFAL",
        "id": 16,
        "latitude": 66.54961,
        "longitude": -152.62929,
        "name": "Allakaket Airport (FAA: 6A8)",
        "nearest_cities": [],
        "nearest_parks": [],
        "phone": "+1 907-451-5250",
        "state": "Alaska",
        "website": "https://nfdc.faa.gov/nfdcApps/airportLookup/airportDisplay.jsp?airportId=6A8",
        "zip_code": "99720"
    },
    {
        "address": "3311 Airport Road",
        "city": "Allentown",
        "iata_code": "ABE",
        "icao_code": "KABE",
        "id": 17,
        "latitude": 40.651833,
        "longitude": -75.441414,
        "name": "Lehigh Valley International Airport",
        "nearest_cities": [],
        "nearest_parks": [],
        "phone": "+1 610-266-6000",
        "state": "Pennsylvania",
        "website": "http://www.flylvia.com/",
        "zip_code": "18109"
    },
    {
        "address": "5631 Sarpy Road",
        "city": "Alliance",
        "iata_code": "AIA",
        "icao_code": "KAIA",
        "id": 18,
        "latitude": 42.06191,
        "longitude": -102.806984,
        "name": "Alliance Municipal Airport",
        "nearest_cities": [],
        "nearest_parks": [],
        "phone": "+1 308-762-4512",
        "state": "Nebraska",
        "website": "http://www.cityofalliance.net/index.aspx?nid=253",
        "zip_code": "69301"
    },
    {
        "address": "1617 Airport Road",
        "city": "Alpena",
        "iata_code": "APN",
        "icao_code": "KAPN",
        "id": 19,
        "latitude": 45.072197,
        "longitude": -83.56359,
        "name": "Alpena County Regional Airport",
        "nearest_cities": [],
        "nearest_parks": [],
        "phone": "+1 989-354-2907",
        "state": "Michigan",
        "website": "http://alpenaairport.com/",
        "zip_code": "49707"
    },
    {
        "address": "310 Airport Entrance Road",
        "city": "Martinsburg",
        "iata_code": "AOO",
        "icao_code": "KAOO",
        "id": 20,
        "latitude": 40.295128,
        "longitude": -78.323906,
        "name": "Altoona\u2013Blair County Airport",
        "nearest_cities": [],
        "nearest_parks": [],
        "phone": "+1 814-793-2027",
        "state": "Pennsylvania",
        "website": "http://www.flyaltoona.com/",
        "zip_code": "16662"
    },
    {
        "address": "10801 Airport Boulevard",
        "city": "Amarillo",
        "iata_code": "AMA",
        "icao_code": "KAMA",
        "id": 21,
        "latitude": 35.220325,
        "longitude": -101.70745,
        "name": "Rick Husband Amarillo International Airport",
        "nearest_cities": [],
        "nearest_parks": [],
        "phone": "+1 806-335-1671",
        "state": "Texas",
        "website": "http://fly-ama.com/",
        "zip_code": "79111"
    },
    {
        "address": " ",
        "city": "Ambler",
        "iata_code": "ABL",
        "icao_code": "PAFM",
        "id": 22,
        "latitude": 67.10524,
        "longitude": -157.85498,
        "name": "Ambler Airport (FAA: AFM)",
        "nearest_cities": [],
        "nearest_parks": [],
        "phone": "+1 907-442-3147",
        "state": "Alaska",
        "website": "https://nfdc.faa.gov/nfdcApps/airportLookup/airportDisplay.jsp?category=nasr&airportId=PAFM",
        "zip_code": "99786"
    },
    {
        "address": "221 Airport Street",
        "city": "Anaktuvuk Pass",
        "iata_code": "AKP",
        "icao_code": "PAKP",
        "id": 23,
        "latitude": 68.13318,
        "longitude": -151.74333,
        "name": "Anaktuvuk Pass Airport",
        "nearest_cities": [],
        "nearest_parks": [],
        "phone": "+1 907-852-0371",
        "state": "Alaska",
        "website": "http://www.faa.gov/",
        "zip_code": "99721"
    },
    {
        "address": "5000 West International Airport Road",
        "city": "Anchorage",
        "iata_code": "ANC",
        "icao_code": "PANC",
        "id": 24,
        "latitude": 61.175888,
        "longitude": -149.99008,
        "name": "Ted Stevens Anchorage International Airport",
        "nearest_cities": [],
        "nearest_parks": [],
        "phone": "+1 907-266-2526",
        "state": "Alaska",
        "website": "http://dot.state.ak.us/anc/",
        "zip_code": "99502"
    },
    {
        "address": " ",
        "city": "Angoon",
        "iata_code": "AGN",
        "icao_code": "PAGN",
        "id": 25,
        "latitude": 57.496597,
        "longitude": -134.5697,
        "name": "Angoon Seaplane Base",
        "nearest_cities": [],
        "nearest_parks": [],
        "phone": "+1 907-465-1784",
        "state": "Alaska",
        "website": "http://dot.alaska.gov/stwdav/airports_public_southeast.shtml",
        "zip_code": "99820"
    },
    {
        "address": " ",
        "city": "Aniak",
        "iata_code": "ANI",
        "icao_code": "PANI",
        "id": 26,
        "latitude": 61.5808,
        "longitude": -159.54259,
        "name": "Aniak Airport",
        "nearest_cities": [],
        "nearest_parks": [],
        "phone": "+1 907-266-0151",
        "state": "Alaska",
        "website": "https://nfdc.faa.gov/nfdcApps/services/ajv5/airportDisplay.jsp?airportId=ani",
        "zip_code": "99557"
    },
    {
        "address": " ",
        "city": "Anvik",
        "iata_code": "ANV",
        "icao_code": "PANV",
        "id": 27,
        "latitude": 62.64841,
        "longitude": -160.19019,
        "name": "Anvik Airport",
        "nearest_cities": [],
        "nearest_parks": [],
        "phone": "+1 907-451-2200",
        "state": "Alaska",
        "website": "http://www.faa.gov/airports/airport_safety/airportdata_5010/menu/contacts.cfm?Region=&District=&State=AK&County=&City=&Use=&Certification=",
        "zip_code": "99558"
    },
    {
        "address": "W6390 Challenger Drive",
        "city": "Appleton",
        "iata_code": "ATW",
        "icao_code": "KATW",
        "id": 28,
        "latitude": 44.26029,
        "longitude": -88.51119,
        "name": "Appleton International Airport",
        "nearest_cities": [],
        "nearest_parks": [],
        "phone": "+1 920-832-5268",
        "state": "Wisconsin",
        "website": "http://www.atwairport.com/",
        "zip_code": "54914"
    },
    {
        "address": "3561 Boeing Avenue",
        "city": "McKinleyville",
        "iata_code": "ACV",
        "icao_code": "KACV",
        "id": 29,
        "latitude": 40.97092,
        "longitude": -124.10658,
        "name": "Arcata-Eureka Airport",
        "nearest_cities": [],
        "nearest_parks": [],
        "phone": "+1 707-839-5401",
        "state": "California",
        "website": "http://co.humboldt.ca.us/aviation/content.asp?page=airport_and_airline_information.htm",
        "zip_code": "95519"
    },
    {
        "address": " ",
        "city": "Arctic Village",
        "iata_code": "ARC",
        "icao_code": "PARC",
        "id": 30,
        "latitude": 68.11444,
        "longitude": -145.57916,
        "name": "Arctic Village Airport",
        "nearest_cities": [],
        "nearest_parks": [],
        "phone": "+1 907-849-8165",
        "state": "Alaska",
        "website": "https://nfdc.faa.gov/nfdcApps/airportLookup/airportDisplay.jsp?category=nasr&airportId=ARC",
        "zip_code": "99722"
    },
    {
        "address": "61 Terminal Drive",
        "city": "Fletcher",
        "iata_code": "AVL",
        "icao_code": "KAVL",
        "id": 31,
        "latitude": 35.434895,
        "longitude": -82.53786,
        "name": "Asheville Regional Airport",
        "nearest_cities": [],
        "nearest_parks": [],
        "phone": "+1 828-684-2226",
        "state": "North Carolina",
        "website": "http://flyavl.com/",
        "zip_code": "28732"
    },
    {
        "address": "1449 County Route 3/1",
        "city": "Huntington",
        "iata_code": "HTS",
        "icao_code": "KHTS",
        "id": 32,
        "latitude": 38.368355,
        "longitude": -82.55781,
        "name": "Tri-State Airport (Milton J. Ferguson Field)",
        "nearest_cities": [],
        "nearest_parks": [],
        "phone": "+1 304-453-6165",
        "state": "West Virginia",
        "website": "http://tristateairport.com/",
        "zip_code": "25704"
    },
    {
        "address": "233 West Airport Road",
        "city": "Aspen",
        "iata_code": "ASE",
        "icao_code": "KASE",
        "id": 33,
        "latitude": 39.22002,
        "longitude": -106.86452,
        "name": "Aspen\u2013Pitkin County Airport (Sardy Field)",
        "nearest_cities": [],
        "nearest_parks": [],
        "phone": "+1 970-920-5384",
        "state": "Colorado",
        "website": "http://www.aspenairport.com/",
        "zip_code": "81611"
    },
    {
        "address": "1010 Ben Epps Drive",
        "city": "Athens",
        "iata_code": "AHN",
        "icao_code": "KAHN",
        "id": 34,
        "latitude": 33.949215,
        "longitude": -83.32748,
        "name": "Athens Ben Epps Airport",
        "nearest_cities": [],
        "nearest_parks": [],
        "phone": "+1 706-613-3420",
        "state": "Georgia",
        "website": "http://www.athensairport.net/",
        "zip_code": "30605"
    },
    {
        "address": " ",
        "city": "Atka",
        "iata_code": "AKB",
        "icao_code": "PAAK",
        "id": 35,
        "latitude": 52.218117,
        "longitude": -174.20627,
        "name": "Atka Airport (FAA: AKA)",
        "nearest_cities": [],
        "nearest_parks": [],
        "phone": "+1 907-269-0751",
        "state": "Alaska",
        "website": "https://nfdc.faa.gov/nfdcApps/airportLookup/airportDisplay.jsp?airportId=AKA",
        "zip_code": "99547"
    },
    {
        "address": "6000 North Terminal Parkway",
        "city": "Atlanta",
        "iata_code": "ATL",
        "icao_code": "KATL",
        "id": 36,
        "latitude": 33.640728,
        "longitude": -84.427704,
        "name": "Hartsfield\u2013Jackson Atlanta International Airport",
        "nearest_cities": [],
        "nearest_parks": [],
        "phone": "+1 800-897-1910",
        "state": "Georgia",
        "website": "http://www.atl.com/",
        "zip_code": "30320"
    },
    {
        "address": " ",
        "city": "Atlantic City",
        "iata_code": "AIY",
        "icao_code": "KAIY",
        "id": 37,
        "latitude": 39.360302,
        "longitude": -74.456604,
        "name": "Atlantic City Municipal Airport (Bader Field) (closed 2006)",
        "nearest_cities": [],
        "nearest_parks": [],
        "phone": "",
        "state": "New Jersey",
        "website": "http://sjta.com/",
        "zip_code": "8401"
    },
    {
        "address": " ",
        "city": "Barrow",
        "iata_code": "ATK",
        "icao_code": "PATQ",
        "id": 38,
        "latitude": 70.46747,
        "longitude": -157.432,
        "name": "Atqasuk Edward Burnell Sr. Memorial Airport",
        "nearest_cities": [],
        "nearest_parks": [],
        "phone": "+1 907-852-2611",
        "state": "Alaska",
        "website": "",
        "zip_code": "99723"
    },
    {
        "address": "1501 Aviation Way",
        "city": "Augusta",
        "iata_code": "AGS",
        "icao_code": "KAGS",
        "id": 39,
        "latitude": 33.368855,
        "longitude": -81.96577,
        "name": "Augusta Regional Airport at Bush Field",
        "nearest_cities": [],
        "nearest_parks": [],
        "phone": "+1 706-798-3236",
        "state": "Georgia",
        "website": "http://www.flyags.com/",
        "zip_code": "30906"
    },
    {
        "address": "75 Airport Road",
        "city": "Augusta",
        "iata_code": "AUG",
        "icao_code": "KAUG",
        "id": 40,
        "latitude": 44.31882,
        "longitude": -69.79554,
        "name": "Augusta State Airport",
        "nearest_cities": [],
        "nearest_parks": [],
        "phone": "+1 207-626-2306",
        "state": "Maine",
        "website": "http://www.augustamaine.gov/departments/augusta_state_airport/",
        "zip_code": "4330"
    },
    {
        "address": "3600 Presidential Boulevard",
        "city": "Austin",
        "iata_code": "AUS",
        "icao_code": "KAUS",
        "id": 41,
        "latitude": 30.197472,
        "longitude": -97.66635,
        "name": "Austin\u2013Bergstrom International Airport",
        "nearest_cities": [],
        "nearest_parks": [],
        "phone": "+1 512-530-2242",
        "state": "Texas",
        "website": "http://www.austintexas.gov/airport/",
        "zip_code": "78719"
    },
    {
        "address": "3701 Wings Way",
        "city": "Bakersfield",
        "iata_code": "BFL",
        "icao_code": "KBFL",
        "id": 42,
        "latitude": 35.43291,
        "longitude": -119.05662,
        "name": "Meadows Field Airport",
        "nearest_cities": [],
        "nearest_parks": [],
        "phone": "+1 661-391-1800",
        "state": "California",
        "website": "http://www.meadowsfield.com/",
        "zip_code": "93308"
    },
    {
        "address": " ",
        "city": "Baltimore",
        "iata_code": "BWI",
        "icao_code": "KBWI",
        "id": 43,
        "latitude": 39.177402,
        "longitude": -76.668396,
        "name": "Baltimore/Washington International Thurgood Marshall Airport",
        "nearest_cities": [],
        "nearest_parks": [],
        "phone": "+1 410-859-7111",
        "state": "Maryland",
        "website": "http://www.bwiairport.com/",
        "zip_code": "21240"
    },
    {
        "address": "287 Godfrey Boulevard",
        "city": "Bangor",
        "iata_code": "BGR",
        "icao_code": "KBGR",
        "id": 44,
        "latitude": 44.806927,
        "longitude": -68.82327,
        "name": "Bangor International Airport",
        "nearest_cities": [],
        "nearest_parks": [],
        "phone": "+1 207-992-4600",
        "state": "Maine",
        "website": "http://www.flybangor.com/",
        "zip_code": "4401"
    },
    {
        "address": " ",
        "city": "Trenton",
        "iata_code": "BHB",
        "icao_code": "KBHB",
        "id": 45,
        "latitude": 44.4451,
        "longitude": -68.36213,
        "name": "Hancock County-Bar Harbor Airport",
        "nearest_cities": [],
        "nearest_parks": [],
        "phone": "+1 207-667-7329",
        "state": "Maine",
        "website": "http://www.bhbairport.com/",
        "zip_code": "4605"
    },
    {
        "address": "1749 Akavak St",
        "city": "Utqiagvik",
        "iata_code": "BRW",
        "icao_code": "PABR",
        "id": 46,
        "latitude": 71.28491,
        "longitude": -156.76636,
        "name": "Wiley Post\u2013Will Rogers Memorial Airport",
        "nearest_cities": [],
        "nearest_parks": [],
        "phone": "+1 907-852-6199",
        "state": "Alaska",
        "website": "",
        "zip_code": "99723"
    },
    {
        "address": " ",
        "city": "Kaktovik",
        "iata_code": "BTI",
        "icao_code": "PABA",
        "id": 47,
        "latitude": 70.11312,
        "longitude": -143.65268,
        "name": "Barter Island LRRS Airport",
        "nearest_cities": [],
        "nearest_parks": [],
        "phone": "+1 907-640-6616",
        "state": "Alaska",
        "website": "https://nfdc.faa.gov/nfdcApps/services/ajv5/airportDisplay.jsp?airportId=bti",
        "zip_code": "99747"
    },
    {
        "address": "9430 Jackie Cochran Dr",
        "city": "Baton Rouge",
        "iata_code": "BTR",
        "icao_code": "KBTR",
        "id": 48,
        "latitude": 30.53236,
        "longitude": -91.15146,
        "name": "Baton Rouge Metropolitan Airport (Ryan Field)",
        "nearest_cities": [],
        "nearest_parks": [],
        "phone": "+1 225-355-0333",
        "state": "Louisiana",
        "website": "http://www.flybtr.com/",
        "zip_code": "70811"
    },
    {
        "address": "9200 Garfield Road",
        "city": "Freeland",
        "iata_code": "MBS",
        "icao_code": "KMBS",
        "id": 49,
        "latitude": 43.538628,
        "longitude": -84.0821,
        "name": "MBS International Airport",
        "nearest_cities": [],
        "nearest_parks": [],
        "phone": "+1 989-695-5555",
        "state": "Michigan",
        "website": "http://www.mbsairport.org/",
        "zip_code": "48623"
    },
    {
        "address": "6000 Air Line Drive",
        "city": "Beaumont",
        "iata_code": "BPT",
        "icao_code": "KBPT",
        "id": 50,
        "latitude": 29.955847,
        "longitude": -94.02207,
        "name": "Jack Brooks Regional Airport",
        "nearest_cities": [],
        "nearest_parks": [],
        "phone": "+1 409-719-4900",
        "state": "Texas",
        "website": "http://flysetx.com/",
        "zip_code": "77705"
    },
    {
        "address": " ",
        "city": "Beaver",
        "iata_code": "WBQ",
        "icao_code": "PAWB",
        "id": 52,
        "latitude": 66.362366,
        "longitude": -147.40489,
        "name": "Beaver Airport",
        "nearest_cities": [],
        "nearest_parks": [],
        "phone": "+1 907-451-5230",
        "state": "Alaska",
        "website": "https://nfdc.faa.gov/nfdcApps/airportLookup/airportDisplay.jsp?category=nasr&airportId=WBQ",
        "zip_code": "99724"
    },
    {
        "address": "176 Airport Road",
        "city": "Beaver",
        "iata_code": "BKW",
        "icao_code": "KBKW",
        "id": 53,
        "latitude": 37.791668,
        "longitude": -81.12345,
        "name": "Raleigh County Memorial Airport",
        "nearest_cities": [],
        "nearest_parks": [],
        "phone": "+1 304-255-0476",
        "state": "West Virginia",
        "website": "http://www.flybeckley.com/",
        "zip_code": "25813"
    },
    {
        "address": "200 Hanscom Drive",
        "city": "Bedford",
        "iata_code": "BED",
        "icao_code": "KBED",
        "id": 54,
        "latitude": 42.46317,
        "longitude": -71.29119,
        "name": "Laurence G. Hanscom Field",
        "nearest_cities": [],
        "nearest_parks": [],
        "phone": "+1 781-869-8000",
        "state": "Massachusetts",
        "website": "http://www.massport.com/hanscom-field/?utm_source=hanscomfieldCom&utm_medium=Web&utm_campaign=DomainRedirect",
        "zip_code": "1730"
    },
    {
        "address": "9656 Air Terminal Drive",
        "city": "Mascoutah",
        "iata_code": "BLV",
        "icao_code": "KBLV",
        "id": 55,
        "latitude": 38.5492,
        "longitude": -89.82164,
        "name": "MidAmerica St. Louis Airport / Scott Air Force Base",
        "nearest_cities": [],
        "nearest_parks": [],
        "phone": "+1 618-566-5200",
        "state": "Illinois",
        "website": "http://www.flymidamerica.com/",
        "zip_code": "62258"
    },
    {
        "address": "4255 Mitchell Way",
        "city": "Bellingham",
        "iata_code": "BLI",
        "icao_code": "KBLI",
        "id": 56,
        "latitude": 48.795578,
        "longitude": -122.533066,
        "name": "Bellingham International Airport",
        "nearest_cities": [],
        "nearest_parks": [],
        "phone": "+1 360-671-5674",
        "state": "Washington",
        "website": "http://www.portofbellingham.com/index.aspx?nid=82",
        "zip_code": "98226"
    },
    {
        "address": "3824 Moberg Drive Northwest",
        "city": "Bemidji",
        "iata_code": "BJI",
        "icao_code": "KBJI",
        "id": 57,
        "latitude": 47.509243,
        "longitude": -94.93291,
        "name": "Bemidji Regional Airport",
        "nearest_cities": [],
        "nearest_parks": [],
        "phone": "+1 218-444-2438",
        "state": "Minnesota",
        "website": "http://bemidjiairport.org/",
        "zip_code": "56601"
    },
    {
        "address": "1123 Territorial Road",
        "city": "Benton Harbor",
        "iata_code": "BEH",
        "icao_code": "KBEH",
        "id": 58,
        "latitude": 42.12735,
        "longitude": -86.425705,
        "name": "Southwest Michigan Regional Airport",
        "nearest_cities": [],
        "nearest_parks": [],
        "phone": "+1 269-927-3194",
        "state": "Michigan",
        "website": "http://www.swmiairport.com/",
        "zip_code": "49022"
    },
    {
        "address": " ",
        "city": "Bethel",
        "iata_code": "BET",
        "icao_code": "PABE",
        "id": 59,
        "latitude": 60.77972,
        "longitude": -161.83778,
        "name": "Bethel Airport",
        "nearest_cities": [],
        "nearest_parks": [],
        "phone": "",
        "state": "Alaska",
        "website": "",
        "zip_code": "99559"
    },
    {
        "address": "3311 Airport Road",
        "city": "Allentown",
        "iata_code": "ABE",
        "icao_code": "KABE",
        "id": 60,
        "latitude": 40.651833,
        "longitude": -75.441414,
        "name": "Lehigh Valley International Airport",
        "nearest_cities": [],
        "nearest_parks": [],
        "phone": "+1 610-266-6000",
        "state": "Pennsylvania",
        "website": "http://www.flylvia.com/",
        "zip_code": "18109"
    },
    {
        "address": "1 front st",
        "city": "Bettles",
        "iata_code": "BTT",
        "icao_code": "PABT",
        "id": 61,
        "latitude": 66.91929,
        "longitude": -151.51907,
        "name": "Bettles Airport",
        "nearest_cities": [],
        "nearest_parks": [],
        "phone": "+1 907-451-2200",
        "state": "Alaska",
        "website": "https://nfdc.faa.gov/nfdcApps/airportLookup/airportDisplay.jsp?category=nasr&airportId=BTT",
        "zip_code": "99726"
    },
    {
        "address": "1901 Terminal Circle",
        "city": "Billings",
        "iata_code": "BIL",
        "icao_code": "KBIL",
        "id": 62,
        "latitude": 45.80351,
        "longitude": -108.53791,
        "name": "Billings Logan International Airport",
        "nearest_cities": [],
        "nearest_parks": [],
        "phone": "+1 406-247-8609",
        "state": "Montana",
        "website": "http://www.flybillings.com/",
        "zip_code": "59105"
    },
    {
        "address": "14035 Airport Road",
        "city": "Gulfport",
        "iata_code": "GPT",
        "icao_code": "KGPT",
        "id": 63,
        "latitude": 30.413115,
        "longitude": -89.07278,
        "name": "Gulfport\u2013Biloxi International Airport",
        "nearest_cities": [],
        "nearest_parks": [],
        "phone": "+1 228-863-5951",
        "state": "Mississippi",
        "website": "http://www.flygpt.com/",
        "zip_code": "39503"
    },
    {
        "address": "2534 Airport Road",
        "city": "Johnson City",
        "iata_code": "BGM",
        "icao_code": "KBGM",
        "id": 64,
        "latitude": 42.208107,
        "longitude": -75.98206,
        "name": "Greater Binghamton Airport (Edwin A. Link Field)",
        "nearest_cities": [],
        "nearest_parks": [],
        "phone": "+1 607-763-4471",
        "state": "New York",
        "website": "http://www.flybgm.com/",
        "zip_code": "13790"
    },
    {
        "address": " ",
        "city": "Central",
        "iata_code": "KBC",
        "icao_code": "",
        "id": 65,
        "latitude": 66.27461,
        "longitude": -145.81792,
        "name": "Birch Creek Airport (FAA: Z91)",
        "nearest_cities": [],
        "nearest_parks": [],
        "phone": "+1 907-451-2200",
        "state": "Alaska",
        "website": "",
        "zip_code": "99730"
    },
    {
        "address": "5900 Messer Airport Highway",
        "city": "Birmingham",
        "iata_code": "BHM",
        "icao_code": "KBHM",
        "id": 66,
        "latitude": 33.562428,
        "longitude": -86.75413,
        "name": "Birmingham\u2013Shuttlesworth International Airport",
        "nearest_cities": [],
        "nearest_parks": [],
        "phone": "+1 205-595-0533",
        "state": "Alabama",
        "website": "http://flybirmingham.com/",
        "zip_code": "35212"
    },
    {
        "address": "2301 University Drive",
        "city": "Bismarck",
        "iata_code": "BIS",
        "icao_code": "KBIS",
        "id": 67,
        "latitude": 46.77519,
        "longitude": -100.75725,
        "name": "Bismarck Municipal Airport",
        "nearest_cities": [],
        "nearest_parks": [],
        "phone": "+1 701-355-1800",
        "state": "North Dakota",
        "website": "http://www.bismarckairport.com/",
        "zip_code": "58504"
    },
    {
        "address": "1 Center Road",
        "city": "New Shoreham",
        "iata_code": "BID",
        "icao_code": "KBID",
        "id": 68,
        "latitude": 41.169292,
        "longitude": -71.58013,
        "name": "Block Island State Airport",
        "nearest_cities": [],
        "nearest_parks": [],
        "phone": "+1 401-466-5511",
        "state": "Rhode Island",
        "website": "http://blockisland.stateairportri.com/",
        "zip_code": "2807"
    },
    {
        "address": "3201 Cira Drive",
        "city": "Bloomington",
        "iata_code": "BMI",
        "icao_code": "KBMI",
        "id": 69,
        "latitude": 40.47621,
        "longitude": -88.91548,
        "name": "Central Illinois Regional Airport",
        "nearest_cities": [],
        "nearest_parks": [],
        "phone": "+1 309-663-7383",
        "state": "Illinois",
        "website": "http://cira.com/",
        "zip_code": "61704"
    },
    {
        "address": "1100 Terminal Circle Drive",
        "city": "Ewing Township",
        "iata_code": "BLF",
        "icao_code": "KBLF",
        "id": 70,
        "latitude": 40.277813,
        "longitude": -74.81372,
        "name": "Mercer County Airport",
        "nearest_cities": [],
        "nearest_parks": [],
        "phone": "+1 609-882-1601",
        "state": "New Jersey",
        "website": "http://www.mercercounty.org/departments/transportation-and-infrastructure/trenton-mercer-airport",
        "zip_code": "8628"
    },
    {
        "address": "3201 West Airport Way",
        "city": "Boise",
        "iata_code": "BOI",
        "icao_code": "KBOI",
        "id": 71,
        "latitude": 43.565823,
        "longitude": -116.22231,
        "name": "Boise Air Terminal (Gowen Field)",
        "nearest_cities": [],
        "nearest_parks": [],
        "phone": "+1 208-383-3110",
        "state": "Idaho",
        "website": "http://www.iflyboise.com/",
        "zip_code": "83705"
    },
    {
        "address": "1 Harborside Drive",
        "city": "Boston",
        "iata_code": "BOS",
        "icao_code": "KBOS",
        "id": 72,
        "latitude": 42.365612,
        "longitude": -71.00956,
        "name": "Logan International Airport",
        "nearest_cities": [],
        "nearest_parks": [],
        "phone": "+1 800-235-6426",
        "state": "Massachusetts",
        "website": "http://www.massport.com/logan-airport",
        "zip_code": "2128"
    },
    {
        "address": "3327 Airport Road",
        "city": "Boulder",
        "iata_code": "WBU",
        "icao_code": "KBDU",
        "id": 75,
        "latitude": 40.03726,
        "longitude": -105.22812,
        "name": "Boulder Municipal Airport (FAA: BDU)",
        "nearest_cities": [],
        "nearest_parks": [],
        "phone": "+1 303-441-3108",
        "state": "Colorado",
        "website": "http://www.bouldercolorado.gov/airport",
        "zip_code": "80301"
    },
    {
        "address": "7800 Alpha Way",
        "city": "Delta",
        "iata_code": "BYA",
        "icao_code": "",
        "id": 76,
        "latitude": 49.074993,
        "longitude": -123.007675,
        "name": "Boundary Airport",
        "nearest_cities": [],
        "nearest_parks": [],
        "phone": "+1 604-946-5361",
        "state": "British Columbia",
        "website": "https://www.czbb.com/",
        "zip_code": "V4K 0A7"
    },
    {
        "address": "1000 Woodhurst Street",
        "city": "Bowling Green",
        "iata_code": "BWG",
        "icao_code": "KBWG",
        "id": 77,
        "latitude": 36.962505,
        "longitude": -86.426926,
        "name": "Bowling Green-Warren County Regional Airport",
        "nearest_cities": [],
        "nearest_parks": [],
        "phone": "+1 270-842-1101",
        "state": "Kentucky",
        "website": "http://www.bgwcairport.org/",
        "zip_code": "42103"
    },
    {
        "address": " Gallatin Field Road",
        "city": "",
        "iata_code": "BZN",
        "icao_code": "KBZN",
        "id": 78,
        "latitude": 45.775135,
        "longitude": -111.16135,
        "name": "Bozeman Yellowstone International Airport (Gallatin Field)",
        "nearest_cities": [],
        "nearest_parks": [],
        "phone": "",
        "state": "Montana",
        "website": "",
        "zip_code": "59714"
    },
    {
        "address": "212 Airport Road",
        "city": "Lewis Run",
        "iata_code": "BFD",
        "icao_code": "KBFD",
        "id": 79,
        "latitude": 41.801502,
        "longitude": -78.63955,
        "name": "Bradford Regional Airport",
        "nearest_cities": [],
        "nearest_parks": [],
        "phone": "+1 814-368-5928",
        "state": "Pennsylvania",
        "website": "http://www.bradfordairport.net/",
        "zip_code": "16738"
    },
    {
        "address": "16384 Airport Road",
        "city": "Brainerd",
        "iata_code": "BRD",
        "icao_code": "KBRD",
        "id": 80,
        "latitude": 46.393047,
        "longitude": -94.141266,
        "name": "Brainerd Lakes Regional Airport",
        "nearest_cities": [],
        "nearest_parks": [],
        "phone": "+1 218-825-2166",
        "state": "Minnesota",
        "website": "http://brainerdairport.com/",
        "zip_code": "56401"
    },
    {
        "address": "6251 Airport Road",
        "city": "Brownwood",
        "iata_code": "BWD",
        "icao_code": "KBWD",
        "id": 81,
        "latitude": 31.794977,
        "longitude": -98.955574,
        "name": "Brownwood Regional Airport",
        "nearest_cities": [],
        "nearest_parks": [],
        "phone": "+1 325-643-1482",
        "state": "Texas",
        "website": "http://www.brownwoodtexas.gov/163/Airport",
        "zip_code": "76802"
    },
    {
        "address": "2525 Tennessee 75",
        "city": "Blountville",
        "iata_code": "TRI",
        "icao_code": "KTRI",
        "id": 83,
        "latitude": 36.474274,
        "longitude": -82.409256,
        "name": "Tri-Cities Regional Airport",
        "nearest_cities": [],
        "nearest_parks": [],
        "phone": "+1 423-325-6000",
        "state": "Tennessee",
        "website": "http://www.triflight.com/",
        "zip_code": "37617"
    },
    {
        "address": "509 West Second Street South",
        "city": "Brookings",
        "iata_code": "BKX",
        "icao_code": "KBKX",
        "id": 84,
        "latitude": 44.3039,
        "longitude": -96.8131,
        "name": "Brookings Regional Airport",
        "nearest_cities": [],
        "nearest_parks": [],
        "phone": "+1 605-692-8664",
        "state": "South Dakota",
        "website": "http://cityofbrookings.org/index.aspx?NID=223",
        "zip_code": "57006"
    },
    {
        "address": "700 Amelia Earhart Drive",
        "city": "Brownsville",
        "iata_code": "BRO",
        "icao_code": "KBRO",
        "id": 86,
        "latitude": 25.906326,
        "longitude": -97.42699,
        "name": "Brownsville/South Padre Island International Airport",
        "nearest_cities": [],
        "nearest_parks": [],
        "phone": "+1 956-542-4373",
        "state": "Texas",
        "website": "http://www.flybrownsville.com/",
        "zip_code": "78521"
    },
    {
        "address": "295 Aviation Parkway",
        "city": "Brunswick",
        "iata_code": "BQK",
        "icao_code": "KBQK",
        "id": 87,
        "latitude": 31.254833,
        "longitude": -81.46691,
        "name": "Brunswick Golden Isles Airport",
        "nearest_cities": [],
        "nearest_parks": [],
        "phone": "+1 912-265-2070",
        "state": "Georgia",
        "website": "http://www.flygcairports.com/",
        "zip_code": "31525"
    },
    {
        "address": " ",
        "city": "Buckland",
        "iata_code": "BKC",
        "icao_code": "PABL",
        "id": 88,
        "latitude": 65.98141,
        "longitude": -161.14917,
        "name": "Buckland Airport (FAA: BVK)",
        "nearest_cities": [],
        "nearest_parks": [],
        "phone": "+1 907-451-5250",
        "state": "Alaska",
        "website": "https://nfdc.faa.gov/nfdcApps/airportLookup/airportDisplay.jsp?category=nasr&airportId=BVK",
        "zip_code": ""
    },
    {
        "address": "4200 Genesee Street",
        "city": "Buffalo",
        "iata_code": "BUF",
        "icao_code": "KBUF",
        "id": 89,
        "latitude": 42.939705,
        "longitude": -78.72951,
        "name": "Buffalo Niagara International Airport",
        "nearest_cities": [],
        "nearest_parks": [],
        "phone": "+1 716-630-6000",
        "state": "New York",
        "website": "http://buffaloairport.com/",
        "zip_code": "14225"
    },
    {
        "address": "2550 Laughlin View Dr",
        "city": "Bullhead City",
        "iata_code": "IFP",
        "icao_code": "KIFP",
        "id": 90,
        "latitude": 35.156292,
        "longitude": -114.55843,
        "name": "Laughlin/Bullhead International Airport",
        "nearest_cities": [],
        "nearest_parks": [],
        "phone": "+1 928-754-2134",
        "state": "Arizona",
        "website": "http://www.laughlinbullheadintlairport.com/",
        "zip_code": "86429"
    },
    {
        "address": "2627 North Hollywood Way",
        "city": "Burbank",
        "iata_code": "BUR",
        "icao_code": "KBUR",
        "id": 91,
        "latitude": 34.19831,
        "longitude": -118.35741,
        "name": "Bob Hope Airport",
        "nearest_cities": [],
        "nearest_parks": [],
        "phone": "+1 818-840-8840",
        "state": "California",
        "website": "http://www.burbankairport.com/",
        "zip_code": "91505"
    },
    {
        "address": "2515 Summer Street",
        "city": "Burlington",
        "iata_code": "BRL",
        "icao_code": "KBRL",
        "id": 92,
        "latitude": 40.7815,
        "longitude": -91.12,
        "name": "Southeast Iowa Regional Airport",
        "nearest_cities": [],
        "nearest_parks": [],
        "phone": "+1 319-754-1414",
        "state": "Iowa",
        "website": "http://www.flybrl.com/",
        "zip_code": "52601"
    },
    {
        "address": "1200 Airport Drive",
        "city": "South Burlington",
        "iata_code": "BTV",
        "icao_code": "KBTV",
        "id": 93,
        "latitude": 44.470695,
        "longitude": -73.1516,
        "name": "Burlington International Airport",
        "nearest_cities": [],
        "nearest_parks": [],
        "phone": "+1 802-863-2874",
        "state": "Vermont",
        "website": "http://www.btv.aero/",
        "zip_code": "5403"
    },
    {
        "address": "101 Airport Road",
        "city": "Butte",
        "iata_code": "BTM",
        "icao_code": "KBTM",
        "id": 94,
        "latitude": 45.954838,
        "longitude": -112.507545,
        "name": "Bert Mooney Airport",
        "nearest_cities": [],
        "nearest_parks": [],
        "phone": "+1 406-494-3771",
        "state": "Montana",
        "website": "http://butteairport.com/",
        "zip_code": "59701"
    },
    {
        "address": "5400 Lauby Road",
        "city": "North Canton",
        "iata_code": "CAK",
        "icao_code": "KCAK",
        "id": 95,
        "latitude": 40.91538,
        "longitude": -81.44189,
        "name": "Akron-Canton Airport",
        "nearest_cities": [],
        "nearest_parks": [],
        "phone": "+1 888-434-2359",
        "state": "Ohio",
        "website": "http://www.akroncantonairport.com/",
        "zip_code": "44720"
    },
    {
        "address": "860 Limbaugh Drive",
        "city": "Cape Girardeau",
        "iata_code": "CGI",
        "icao_code": "KCGI",
        "id": 96,
        "latitude": 37.225357,
        "longitude": -89.5701,
        "name": "Cape Girardeau Regional Airport",
        "nearest_cities": [],
        "nearest_parks": [],
        "phone": "+1 573-334-6230",
        "state": "Missouri",
        "website": "https://www.cityofcapegirardeau.org/departments/airport",
        "zip_code": "63701"
    },
    {
        "address": " ",
        "city": "Point Hope",
        "iata_code": "LUR",
        "icao_code": "PALU",
        "id": 97,
        "latitude": 68.87549,
        "longitude": -166.11217,
        "name": "Cape Lisburne LRRS Airport",
        "nearest_cities": [],
        "nearest_parks": [],
        "phone": "+1 907-552-9730",
        "state": "Alaska",
        "website": "https://nfdc.faa.gov/nfdcApps/airportLookup/airportDisplay.jsp?category=nasr&airportId=LUR",
        "zip_code": "99766"
    },
    {
        "address": " ",
        "city": "Bethel",
        "iata_code": "EHM",
        "icao_code": "PAEH",
        "id": 98,
        "latitude": 58.646427,
        "longitude": -162.06277,
        "name": "Cape Newenham LRRS Airport",
        "nearest_cities": [],
        "nearest_parks": [],
        "phone": "",
        "state": "Alaska",
        "website": "",
        "zip_code": "99559"
    },
    {
        "address": "556 North Airport Road",
        "city": "Murphysboro",
        "iata_code": "MDH",
        "icao_code": "KMDH",
        "id": 99,
        "latitude": 37.77748,
        "longitude": -89.253624,
        "name": "Southern Illinois Airport",
        "nearest_cities": [],
        "nearest_parks": [],
        "phone": "+1 618-529-1721",
        "state": "Illinois",
        "website": "http://siairport.com/",
        "zip_code": "62966"
    },
    {
        "address": "2198 Palomar Airport Road",
        "city": "Carlsbad",
        "iata_code": "CLD",
        "icao_code": "KCRQ",
        "id": 100,
        "latitude": 33.126823,
        "longitude": -117.27924,
        "name": "McClellan\u2013Palomar Airport (FAA: CRQ)",
        "nearest_cities": [],
        "nearest_parks": [],
        "phone": "+1 760-431-4646",
        "state": "California",
        "website": "http://www.sdcounty.ca.gov/dpw/airports/palomar.html",
        "zip_code": "92011"
    },
    {
        "address": "1505 Terminal Drive",
        "city": "Carlsbad",
        "iata_code": "CNM",
        "icao_code": "KCNM",
        "id": 101,
        "latitude": 32.345585,
        "longitude": -104.25269,
        "name": "Cavern City Air Terminal",
        "nearest_cities": [],
        "nearest_parks": [],
        "phone": "+1 575-887-3060",
        "state": "New Mexico",
        "website": "http://www.cityofcarlsbadnm.com/Airport.cfm",
        "zip_code": "88220"
    },
    {
        "address": "200 Fred Kane Drive",
        "city": "Monterey",
        "iata_code": "MRY",
        "icao_code": "KMRY",
        "id": 102,
        "latitude": 36.58827,
        "longitude": -121.849106,
        "name": "Monterey Regional Airport",
        "nearest_cities": [],
        "nearest_parks": [],
        "phone": "+1 831-648-7000",
        "state": "California",
        "website": "http://www.montereyairport.com/",
        "zip_code": "93940"
    },
    {
        "address": "8500 Airport Parkway",
        "city": "Casper",
        "iata_code": "CPR",
        "icao_code": "KCPR",
        "id": 103,
        "latitude": 42.897274,
        "longitude": -106.46485,
        "name": "Casper\u2013Natrona County International Airport",
        "nearest_cities": [],
        "nearest_parks": [],
        "phone": "+1 307-472-6688",
        "state": "Wyoming",
        "website": "http://www.iflycasper.com/",
        "zip_code": "82604"
    },
    {
        "address": "2560 Aviation Way Street",
        "city": "Cedar City",
        "iata_code": "CDC",
        "icao_code": "KCDC",
        "id": 104,
        "latitude": 37.69609,
        "longitude": -113.09721,
        "name": "Cedar City Regional Airport",
        "nearest_cities": [],
        "nearest_parks": [],
        "phone": "+1 435-867-9408",
        "state": "Utah",
        "website": "http://www.cedarcity.org/76/Airport",
        "zip_code": "84721"
    },
    {
        "address": "2121 Arthur Collins Parkway Southwest",
        "city": "Cedar Rapids",
        "iata_code": "CID",
        "icao_code": "KCID",
        "id": 105,
        "latitude": 41.886387,
        "longitude": -91.70698,
        "name": "The Eastern Iowa Airport",
        "nearest_cities": [],
        "nearest_parks": [],
        "phone": "+1 319-362-8336",
        "state": "Iowa",
        "website": "http://www.eiairport.org/",
        "zip_code": "52404"
    },
    {
        "address": "252-252/1 Mahidol Road",
        "city": "Tambon Pa Daet",
        "iata_code": "CEM",
        "icao_code": "PARL",
        "id": 106,
        "latitude": 18.76895,
        "longitude": 98.97531,
        "name": "Central Airport",
        "nearest_cities": [],
        "nearest_parks": [],
        "phone": "+66 53 999 199",
        "state": "Chang Wat Chiang Mai",
        "website": "http://www.centralplaza.co.th/",
        "zip_code": "50100"
    },
    {
        "address": "90 Airport Road",
        "city": "Chadron",
        "iata_code": "CDR",
        "icao_code": "KCDR",
        "id": 107,
        "latitude": 42.828926,
        "longitude": -103.0968,
        "name": "Chadron Municipal Airport",
        "nearest_cities": [],
        "nearest_parks": [],
        "phone": "+1 308-432-8128",
        "state": "Nebraska",
        "website": "http://www.chadron-nebraska.com/301/Municipal-Airport",
        "zip_code": "69337"
    },
    {
        "address": " Steese Hwy",
        "city": "Chalkyitsik",
        "iata_code": "CIK",
        "icao_code": "PACI",
        "id": 108,
        "latitude": 66.644745,
        "longitude": -143.74059,
        "name": "Chalkyitsik Airport",
        "nearest_cities": [],
        "nearest_parks": [],
        "phone": "+1 907-451-5230",
        "state": "Alaska",
        "website": "https://nfdc.faa.gov/nfdcApps/airportLookup/airportDisplay.jsp?category=nasr&airportId=CIK",
        "zip_code": "99788"
    },
    {
        "address": "11 Airport Road",
        "city": "Savoy",
        "iata_code": "CMI",
        "icao_code": "KCMI",
        "id": 109,
        "latitude": 40.036495,
        "longitude": -88.263985,
        "name": "University of Illinois Willard Airport",
        "nearest_cities": [],
        "nearest_parks": [],
        "phone": "+1 217-244-8604",
        "state": "Illinois",
        "website": "https://iflycu.com/",
        "zip_code": "61874"
    },
    {
        "address": "5500 International Blvd",
        "city": "Charleston",
        "iata_code": "CHS",
        "icao_code": "KCHS",
        "id": 110,
        "latitude": 32.894268,
        "longitude": -80.03816,
        "name": "Charleston International Airport / Charleston Air Force Base",
        "nearest_cities": [],
        "nearest_parks": [],
        "phone": "+1 843-767-7009",
        "state": "South Carolina",
        "website": "https://www.iflychs.com/",
        "zip_code": "29418"
    },
    {
        "address": "100 Airport Road",
        "city": "Charleston",
        "iata_code": "CRW",
        "icao_code": "KCRW",
        "id": 111,
        "latitude": 38.37145,
        "longitude": -81.59349,
        "name": "Yeager Airport",
        "nearest_cities": [],
        "nearest_parks": [],
        "phone": "+1 304-344-8033",
        "state": "West Virginia",
        "website": "http://yeagerairport.com/",
        "zip_code": "25311"
    },
    {
        "address": "5501 Josh Birmingham Parkway",
        "city": "Charlotte",
        "iata_code": "CLT",
        "icao_code": "KCLT",
        "id": 112,
        "latitude": 35.2144,
        "longitude": -80.94731,
        "name": "Charlotte Douglas International Airport",
        "nearest_cities": [],
        "nearest_parks": [],
        "phone": "+1 704-359-4013",
        "state": "North Carolina",
        "website": "http://www.cltairport.com/Pages/default.aspx",
        "zip_code": "28208"
    },
    {
        "address": "100 Bowen Loop",
        "city": "Charlottesville",
        "iata_code": "CHO",
        "icao_code": "KCHO",
        "id": 113,
        "latitude": 38.13949,
        "longitude": -78.451614,
        "name": "Charlottesville\u2013Albemarle Airport",
        "nearest_cities": [],
        "nearest_parks": [],
        "phone": "+1 434-973-8342",
        "state": "Virginia",
        "website": "http://www.gocho.com/",
        "zip_code": "22911"
    },
    {
        "address": "1001 Airport Road",
        "city": "Chattanooga",
        "iata_code": "CHA",
        "icao_code": "KCHA",
        "id": 114,
        "latitude": 35.03745,
        "longitude": -85.197014,
        "name": "Chattanooga Metropolitan Airport (Lovell Field)",
        "nearest_cities": [],
        "nearest_parks": [],
        "phone": "+1 423-855-2200",
        "state": "Tennessee",
        "website": "https://www.chattairport.com/",
        "zip_code": "37421"
    },
    {
        "address": " ",
        "city": "Chefornak",
        "iata_code": "CYF",
        "icao_code": "PACK",
        "id": 115,
        "latitude": 60.137936,
        "longitude": -164.28207,
        "name": "Chefornak Airport (FAA: CFK)",
        "nearest_cities": [],
        "nearest_parks": [],
        "phone": "+1 907-269-0747",
        "state": "Alaska",
        "website": "https://nfdc.faa.gov/nfdcApps/services/ajv5/airportDisplay.jsp?airportId=cfk",
        "zip_code": "99561"
    },
    {
        "address": " Sandpiper Street",
        "city": "Chevak",
        "iata_code": "VAK",
        "icao_code": "PAVA",
        "id": 116,
        "latitude": 61.540348,
        "longitude": -165.59898,
        "name": "Chevak Airport",
        "nearest_cities": [],
        "nearest_parks": [],
        "phone": "+1 907-543-2495",
        "state": "Alaska",
        "website": "https://nfdc.faa.gov/nfdcApps/services/ajv5/airportDisplay.jsp?airportId=vak",
        "zip_code": "99563"
    },
    {
        "address": "3698-3600 Bradley Avenue",
        "city": "Cheyenne",
        "iata_code": "CYS",
        "icao_code": "KCYS",
        "id": 117,
        "latitude": 41.150124,
        "longitude": -104.80806,
        "name": "Cheyenne Regional Airport (Jerry Olson Field)",
        "nearest_cities": [],
        "nearest_parks": [],
        "phone": "",
        "state": "Wyoming",
        "website": "",
        "zip_code": "82001"
    },
    {
        "address": " ",
        "city": "",
        "iata_code": "CHI",
        "icao_code": "",
        "id": 119,
        "latitude": 0,
        "longitude": 0,
        "name": "metropolitan area2",
        "nearest_cities": [],
        "nearest_parks": [],
        "phone": "",
        "state": "",
        "website": "",
        "zip_code": ""
    },
    {
        "address": "5700 South Cicero Avenue",
        "city": "Chicago",
        "iata_code": "MDW",
        "icao_code": "KMDW",
        "id": 120,
        "latitude": 41.786777,
        "longitude": -87.75219,
        "name": "Midway International Airport",
        "nearest_cities": [],
        "nearest_parks": [],
        "phone": "+1 773-838-0600",
        "state": "Illinois",
        "website": "http://www.flychicago.com/midway/en/home/Pages/default.aspx",
        "zip_code": "60638"
    },
    {
        "address": "10000 W O'Hare Ave",
        "city": "Chicago",
        "iata_code": "ORD",
        "icao_code": "KORD",
        "id": 121,
        "latitude": 41.974163,
        "longitude": -87.90732,
        "name": "O'Hare International Airport",
        "nearest_cities": [],
        "nearest_parks": [],
        "phone": "+1 800-832-6352",
        "state": "Illinois",
        "website": "http://www.flychicago.com/ohare/en/home/Pages/default.aspx",
        "zip_code": "60666"
    },
    {
        "address": " ",
        "city": "Chicken",
        "iata_code": "CKX",
        "icao_code": "",
        "id": 122,
        "latitude": 64.06644,
        "longitude": -141.95103,
        "name": "Chicken Airport",
        "nearest_cities": [],
        "nearest_parks": [],
        "phone": "+1 907-883-5128",
        "state": "Alaska",
        "website": "",
        "zip_code": "99780"
    },
    {
        "address": "150 Airpark Boulevard",
        "city": "Chico",
        "iata_code": "CIC",
        "icao_code": "KCIC",
        "id": 123,
        "latitude": 39.79909,
        "longitude": -121.854675,
        "name": "Chico Municipal Airport",
        "nearest_cities": [],
        "nearest_parks": [],
        "phone": "+1 530-896-7200",
        "state": "California",
        "website": "http://www.chico.ca.us/airport/home_page.asp",
        "zip_code": "95973"
    },
    {
        "address": " ",
        "city": "Chignik",
        "iata_code": "KCG",
        "icao_code": "",
        "id": 124,
        "latitude": 56.310833,
        "longitude": -158.37361,
        "name": "Chignik Fisheries Airport (closed)",
        "nearest_cities": [],
        "nearest_parks": [],
        "phone": "",
        "state": "Alaska",
        "website": "",
        "zip_code": "99564"
    },
    {
        "address": " ",
        "city": "",
        "iata_code": "KCQ",
        "icao_code": "",
        "id": 125,
        "latitude": 0,
        "longitude": 0,
        "name": "Chignik Lake Airport (FAA: A79)",
        "nearest_cities": [],
        "nearest_parks": [],
        "phone": "",
        "state": "",
        "website": "",
        "zip_code": ""
    },
    {
        "address": " ",
        "city": "Chignik Lagoon",
        "iata_code": "KCL",
        "icao_code": "",
        "id": 126,
        "latitude": 56.311165,
        "longitude": -158.53592,
        "name": "Chignik Lagoon Airport (Chignik Flats Airport)",
        "nearest_cities": [],
        "nearest_parks": [],
        "phone": "+1 907-246-3325",
        "state": "Alaska",
        "website": "http://www.faa.gov/airports/airport_safety/airportdata_5010/menu/contacts.cfm?Region=&District=&State=AK&County=&City=&Use=&Certification=",
        "zip_code": "99565"
    },
    {
        "address": " ",
        "city": "Chisana",
        "iata_code": "CZN",
        "icao_code": "",
        "id": 127,
        "latitude": 62.071514,
        "longitude": -142.04922,
        "name": "Chisana Airport",
        "nearest_cities": [],
        "nearest_parks": [],
        "phone": "+1 866-835-5322",
        "state": "Alaska",
        "website": "http://www.faa.gov/about/office_org/headquarters_offices/ato/service_units/systemops/fs/alaskan/alaska/fai/arpt_photo/coprvr/czn",
        "zip_code": ""
    },
    {
        "address": "11038 Minnesota 37",
        "city": "Hibbing",
        "iata_code": "HIB",
        "icao_code": "KHIB",
        "id": 128,
        "latitude": 47.392155,
        "longitude": -92.84215,
        "name": "Range Regional Airport",
        "nearest_cities": [],
        "nearest_parks": [],
        "phone": "+1 218-262-3451",
        "state": "Minnesota",
        "website": "http://www.rangeregionalairport.com/",
        "zip_code": "55746"
    },
    {
        "address": " ",
        "city": "Aniak",
        "iata_code": "CHU",
        "icao_code": "",
        "id": 129,
        "latitude": 61.583492,
        "longitude": -159.23798,
        "name": "Chuathbaluk Airport (FAA: 9A3)",
        "nearest_cities": [],
        "nearest_parks": [],
        "phone": "+1 907-675-4345",
        "state": "Alaska",
        "website": "",
        "zip_code": "99557"
    },
    {
        "address": "3087 Terminal Drive",
        "city": "Hebron",
        "iata_code": "CVG",
        "icao_code": "KCVG",
        "id": 130,
        "latitude": 39.053276,
        "longitude": -84.66302,
        "name": "Cincinnati/Northern Kentucky International Airport",
        "nearest_cities": [],
        "nearest_parks": [],
        "phone": "+1 859-767-3151",
        "state": "Kentucky",
        "website": "http://www.cvgairport.com/",
        "zip_code": "41048"
    },
    {
        "address": " ",
        "city": "Central",
        "iata_code": "CHP",
        "icao_code": "",
        "id": 131,
        "latitude": 65.48547,
        "longitude": -144.61078,
        "name": "Circle Hot Springs Airport",
        "nearest_cities": [],
        "nearest_parks": [],
        "phone": "+1 907-451-2200",
        "state": "Alaska",
        "website": "",
        "zip_code": "99730"
    },
    {
        "address": " Steese Highway",
        "city": "Circle",
        "iata_code": "IRC",
        "icao_code": "PACR",
        "id": 132,
        "latitude": 65.82538,
        "longitude": -144.06853,
        "name": "Circle City Airport (FAA: CRC)",
        "nearest_cities": [],
        "nearest_parks": [],
        "phone": "+1 907-451-5230",
        "state": "Alaska",
        "website": "",
        "zip_code": "99733"
    },
    {
        "address": " ",
        "city": "Clark's Point",
        "iata_code": "CLP",
        "icao_code": "PFCL",
        "id": 133,
        "latitude": 58.83714,
        "longitude": -158.52574,
        "name": "Clarks Point Airport",
        "nearest_cities": [],
        "nearest_parks": [],
        "phone": "+1 907-269-0747",
        "state": "Alaska",
        "website": "http://dot.alaska.gov/stwdav/airports_public_central.shtml",
        "zip_code": "99569"
    },
    {
        "address": "2000 Aviation Way",
        "city": "Bridgeport",
        "iata_code": "CKB",
        "icao_code": "KCKB",
        "id": 134,
        "latitude": 39.300655,
        "longitude": -80.22592,
        "name": "North Central West Virginia Airport",
        "nearest_cities": [],
        "nearest_parks": [],
        "phone": "+1 304-842-3400",
        "state": "West Virginia",
        "website": "http://www.flyckb.com/",
        "zip_code": "26330"
    },
    {
        "address": "14700 Terminal Parkway",
        "city": "Clearwater",
        "iata_code": "PIE",
        "icao_code": "KPIE",
        "id": 135,
        "latitude": 27.909988,
        "longitude": -82.689026,
        "name": "St. Pete\u2013Clearwater International Airport",
        "nearest_cities": [],
        "nearest_parks": [],
        "phone": "+1 727-453-7800",
        "state": "Florida",
        "website": "http://www.fly2pie.com/",
        "zip_code": "33762"
    },
    {
        "address": "5300 Riverside Dr",
        "city": "Cleveland",
        "iata_code": "CLE",
        "icao_code": "KCLE",
        "id": 136,
        "latitude": 41.4058,
        "longitude": -81.85387,
        "name": "Cleveland Hopkins International Airport",
        "nearest_cities": [],
        "nearest_parks": [],
        "phone": "+1 216-265-6000",
        "state": "Ohio",
        "website": "http://www.clevelandairport.com/",
        "zip_code": "44135"
    },
    {
        "address": "459 CR 11.5",
        "city": "Texico",
        "iata_code": "CVN",
        "icao_code": "KCVN",
        "id": 137,
        "latitude": 34.426548,
        "longitude": -103.078514,
        "name": "Clovis Municipal Airport",
        "nearest_cities": [],
        "nearest_parks": [],
        "phone": "+1 575-769-7890",
        "state": "New Mexico",
        "website": "http://www.cityofclovis.org/?page_id=747",
        "zip_code": "88135"
    },
    {
        "address": "2101 Roger Sedam Drive",
        "city": "Cody",
        "iata_code": "COD",
        "icao_code": "KCOD",
        "id": 138,
        "latitude": 44.520443,
        "longitude": -109.02258,
        "name": "Yellowstone Regional Airport",
        "nearest_cities": [],
        "nearest_parks": [],
        "phone": "+1 307-587-5096",
        "state": "Wyoming",
        "website": "http://www.flyyra.com",
        "zip_code": "82414"
    },
    {
        "address": "360 Harbor Avenue",
        "city": "Coffman Cove",
        "iata_code": "KCC",
        "icao_code": "",
        "id": 140,
        "latitude": 56.011894,
        "longitude": -132.82832,
        "name": "Coffman Cove Seaplane Base",
        "nearest_cities": [],
        "nearest_parks": [],
        "phone": "+1 907-329-2219",
        "state": "Alaska",
        "website": "http://www.coffmancovebunkhouse.com/",
        "zip_code": "99918"
    },
    {
        "address": "1 Flying Tiger Way",
        "city": "Cold Bay",
        "iata_code": "CDB",
        "icao_code": "PACD",
        "id": 141,
        "latitude": 55.20229,
        "longitude": -162.7197,
        "name": "Cold Bay Airport",
        "nearest_cities": [],
        "nearest_parks": [],
        "phone": "+1 907-532-5000",
        "state": "Alaska",
        "website": "https://nfdc.faa.gov/nfdcApps/services/ajv5/airportDisplay.jsp?airportId=cdb",
        "zip_code": "99571"
    },
    {
        "address": "1 McKenzie Terminal Boulevard",
        "city": "College Station",
        "iata_code": "CLL",
        "icao_code": "KCLL",
        "id": 142,
        "latitude": 30.591007,
        "longitude": -96.36276,
        "name": "Easterwood Airport (Easterwood Field)",
        "nearest_cities": [],
        "nearest_parks": [],
        "phone": "+1 979-775-9900",
        "state": "Texas",
        "website": "http://easterwoodairport.com/",
        "zip_code": "77845"
    },
    {
        "address": "7770 Milton E Proby Pkwy",
        "city": "Colorado Springs",
        "iata_code": "COS",
        "icao_code": "KCOS",
        "id": 143,
        "latitude": 38.801712,
        "longitude": -104.70261,
        "name": "Colorado Springs Airport",
        "nearest_cities": [],
        "nearest_parks": [],
        "phone": "+1 719-550-1900",
        "state": "Colorado",
        "website": "http://www.flycos.com/",
        "zip_code": "80916"
    },
    {
        "address": "11300 South Airport Drive",
        "city": "Columbia",
        "iata_code": "COU",
        "icao_code": "KCOU",
        "id": 144,
        "latitude": 38.815525,
        "longitude": -92.219376,
        "name": "Columbia Regional Airport",
        "nearest_cities": [],
        "nearest_parks": [],
        "phone": "+1 573-874-7508",
        "state": "Missouri",
        "website": "http://www.flymidmo.com/",
        "zip_code": "65201"
    },
    {
        "address": "3250 Airport Boulevard",
        "city": "West Columbia",
        "iata_code": "CAE",
        "icao_code": "KCAE",
        "id": 145,
        "latitude": 33.941917,
        "longitude": -81.122,
        "name": "Columbia Metropolitan Airport",
        "nearest_cities": [],
        "nearest_parks": [],
        "phone": "+1 803-822-5000",
        "state": "South Carolina",
        "website": "http://www.columbiaairport.com/",
        "zip_code": "29170"
    },
    {
        "address": "4600 International Gateway",
        "city": "Columbus",
        "iata_code": "CSG",
        "icao_code": "KCSG",
        "id": 146,
        "latitude": 39.99994,
        "longitude": -82.88718,
        "name": "Columbus Airport",
        "nearest_cities": [],
        "nearest_parks": [],
        "phone": "+1 614-239-4000",
        "state": "Ohio",
        "website": "http://flycolumbus.com/",
        "zip_code": "43219"
    },
    {
        "address": "2080 Airport Road",
        "city": "Columbus",
        "iata_code": "GTR",
        "icao_code": "KGTR",
        "id": 147,
        "latitude": 33.451603,
        "longitude": -88.5876,
        "name": "Golden Triangle Regional Airport",
        "nearest_cities": [],
        "nearest_parks": [],
        "phone": "+1 662-327-4422",
        "state": "Mississippi",
        "website": "http://www.gtra.com/",
        "zip_code": "39701"
    },
    {
        "address": "4600 International Gateway",
        "city": "Columbus",
        "iata_code": "CMH",
        "icao_code": "KCMH",
        "id": 148,
        "latitude": 39.99994,
        "longitude": -82.88718,
        "name": "John Glenn Columbus International Airport",
        "nearest_cities": [],
        "nearest_parks": [],
        "phone": "+1 614-239-4000",
        "state": "Ohio",
        "website": "http://flycolumbus.com/",
        "zip_code": "43219"
    },
    {
        "address": "550 Sally Ride Drive",
        "city": "Concord",
        "iata_code": "CCR",
        "icao_code": "KCCR",
        "id": 149,
        "latitude": 37.990215,
        "longitude": -122.05613,
        "name": "Buchanan Field Airport",
        "nearest_cities": [],
        "nearest_parks": [],
        "phone": "+1 925-681-4200",
        "state": "California",
        "website": "http://www.co.contra-costa.ca.us/3801/Buchanan-Field-CCR",
        "zip_code": "94520"
    },
    {
        "address": "3015 Blosser Circle",
        "city": "Concordia",
        "iata_code": "CNK",
        "icao_code": "KCNK",
        "id": 150,
        "latitude": 39.549168,
        "longitude": -97.65222,
        "name": "Blosser Municipal Airport",
        "nearest_cities": [],
        "nearest_parks": [],
        "phone": "+1 785-243-1800",
        "state": "Kansas",
        "website": "",
        "zip_code": "66901"
    },
    {
        "address": " ",
        "city": "Cordova",
        "iata_code": "CDV",
        "icao_code": "PACV",
        "id": 152,
        "latitude": 60.493435,
        "longitude": -145.47572,
        "name": "Merle K. (Mudhole) Smith Airport",
        "nearest_cities": [],
        "nearest_parks": [],
        "phone": "+1 907-424-3202",
        "state": "Alaska",
        "website": "https://nfdc.faa.gov/nfdcApps/services/ajv5/airportDisplay.jsp?airportId=cdv",
        "zip_code": "99574"
    },
    {
        "address": "1000 International Drive",
        "city": "Corpus Christi",
        "iata_code": "CRP",
        "icao_code": "KCRP",
        "id": 153,
        "latitude": 27.772423,
        "longitude": -97.50218,
        "name": "Corpus Christi International Airport",
        "nearest_cities": [],
        "nearest_parks": [],
        "phone": "+1 361-289-0171",
        "state": "Texas",
        "website": "http://www.corpuschristiairport.com/",
        "zip_code": "78406"
    },
    {
        "address": " Airport Road",
        "city": "Cortez",
        "iata_code": "CEZ",
        "icao_code": "KCEZ",
        "id": 154,
        "latitude": 37.30267,
        "longitude": -108.62805,
        "name": "Cortez Municipal Airport",
        "nearest_cities": [],
        "nearest_parks": [],
        "phone": "+1 970-565-7458",
        "state": "Colorado",
        "website": "http://www.cityofcortez.com/Index.aspx?NID=113",
        "zip_code": "81321"
    },
    {
        "address": " ",
        "city": "Craig",
        "iata_code": "CGA",
        "icao_code": "",
        "id": 155,
        "latitude": 55.478535,
        "longitude": -133.14688,
        "name": "Craig Seaplane Base",
        "nearest_cities": [],
        "nearest_parks": [],
        "phone": "",
        "state": "Alaska",
        "website": "",
        "zip_code": "99921"
    },
    {
        "address": "150 Dale Rupert Road",
        "city": "Crescent City",
        "iata_code": "CEC",
        "icao_code": "KCEC",
        "id": 156,
        "latitude": 41.777664,
        "longitude": -124.235695,
        "name": "Del Norte County Airport (Jack McNamara Field)",
        "nearest_cities": [],
        "nearest_parks": [],
        "phone": "+1 707-464-7288",
        "state": "California",
        "website": "http://flycrescentcity.com/",
        "zip_code": "95531"
    },
    {
        "address": " ",
        "city": "",
        "iata_code": "CKO",
        "icao_code": "SSCP",
        "id": 157,
        "latitude": -23.153471,
        "longitude": -50.60354,
        "name": "Corn\u00e9lio Proc\u00f3pio Airport",
        "nearest_cities": [],
        "nearest_parks": [],
        "phone": "",
        "state": "State of Paran\u00e1",
        "website": "",
        "zip_code": "86300-000"
    },
    {
        "address": "165 Terminal Loop",
        "city": "Wiley Ford",
        "iata_code": "CBE",
        "icao_code": "KCBE",
        "id": 159,
        "latitude": 39.61659,
        "longitude": -78.76537,
        "name": "Greater Cumberland Regional Airport",
        "nearest_cities": [],
        "nearest_parks": [],
        "phone": "+1 304-738-0002",
        "state": "West Virginia",
        "website": "",
        "zip_code": "26767"
    },
    {
        "address": "2400 Aviation Drive",
        "city": "DFW Airport",
        "iata_code": "DFW",
        "icao_code": "KDFW",
        "id": 160,
        "latitude": 32.89981,
        "longitude": -97.04034,
        "name": "Dallas/Fort Worth International Airport",
        "nearest_cities": [],
        "nearest_parks": [],
        "phone": "+1 972-973-3112",
        "state": "Texas",
        "website": "http://www.dfwairport.com/",
        "zip_code": "75261"
    },
    {
        "address": "3600 Terminal Drive",
        "city": "Dayton",
        "iata_code": "DAY",
        "icao_code": "KDAY",
        "id": 161,
        "latitude": 39.902523,
        "longitude": -84.22177,
        "name": "Dayton International Airport",
        "nearest_cities": [],
        "nearest_parks": [],
        "phone": "+1 937-454-8200",
        "state": "Ohio",
        "website": "http://www.daytonairport.com/",
        "zip_code": "45377"
    },
    {
        "address": "700 Catalina Drive",
        "city": "Daytona Beach",
        "iata_code": "DAB",
        "icao_code": "KDAB",
        "id": 162,
        "latitude": 29.183214,
        "longitude": -81.05323,
        "name": "Daytona Beach International Airport",
        "nearest_cities": [],
        "nearest_parks": [],
        "phone": "+1 386-248-8030",
        "state": "Florida",
        "website": "http://flydaytonafirst.com/",
        "zip_code": "32114"
    },
    {
        "address": " ",
        "city": "Decatur",
        "iata_code": "DEC",
        "icao_code": "KDEC",
        "id": 163,
        "latitude": 39.834724,
        "longitude": -88.866394,
        "name": "Decatur Airport",
        "nearest_cities": [],
        "nearest_parks": [],
        "phone": "+1 217-428-2423",
        "state": "Illinois",
        "website": "http://www.decatur-parks.org/airport-home-page/",
        "zip_code": "62521"
    },
    {
        "address": " ",
        "city": "Deering",
        "iata_code": "DRG",
        "icao_code": "PADE",
        "id": 164,
        "latitude": 66.06844,
        "longitude": -162.76732,
        "name": "Deering Airport (FAA: DEE)",
        "nearest_cities": [],
        "nearest_parks": [],
        "phone": "+1 907-451-5250",
        "state": "Alaska",
        "website": "https://nfdc.faa.gov/nfdcApps/airportLookup/airportDisplay.jsp?airportId=DEE",
        "zip_code": "99736"
    },
    {
        "address": "1885 Hess Avenue",
        "city": "Delta Junction",
        "iata_code": "DJN",
        "icao_code": "",
        "id": 165,
        "latitude": 64.05133,
        "longitude": -145.72963,
        "name": "Delta Junction Airport (FAA: D66)",
        "nearest_cities": [],
        "nearest_parks": [],
        "phone": "+1 907-895-4876",
        "state": "Alaska",
        "website": "http://www.faa.gov/about/office_org/headquarters_offices/ato/service_units/systemops/fs/alaskan/alaska/fai/arpt_photo/tanvly/d66/",
        "zip_code": "99731"
    },
    {
        "address": "8500 Pe\u00f1a Blvd",
        "city": "Denver",
        "iata_code": "DEN",
        "icao_code": "KDEN",
        "id": 166,
        "latitude": 39.8561,
        "longitude": -104.67374,
        "name": "Denver International Airport",
        "nearest_cities": [],
        "nearest_parks": [],
        "phone": "+1 303-342-2000",
        "state": "Colorado",
        "website": "http://www.flydenver.com/",
        "zip_code": "80249"
    },
    {
        "address": "5800 Fleur Drive",
        "city": "Des Moines",
        "iata_code": "DSM",
        "icao_code": "KDSM",
        "id": 168,
        "latitude": 41.534134,
        "longitude": -93.6588,
        "name": "Des Moines International Airport",
        "nearest_cities": [],
        "nearest_parks": [],
        "phone": "+1 515-256-5050",
        "state": "Iowa",
        "website": "http://www.dsmairport.com/",
        "zip_code": "50321"
    },
    {
        "address": " ",
        "city": "",
        "iata_code": "DTT",
        "icao_code": "",
        "id": 169,
        "latitude": 0,
        "longitude": 0,
        "name": "metropolitan area1",
        "nearest_cities": [],
        "nearest_parks": [],
        "phone": "",
        "state": "",
        "website": "",
        "zip_code": ""
    },
    {
        "address": " ",
        "city": "Detroit",
        "iata_code": "DTW",
        "icao_code": "KDTW",
        "id": 170,
        "latitude": 42.21617,
        "longitude": -83.355385,
        "name": "Detroit Metropolitan Wayne County Airport",
        "nearest_cities": [],
        "nearest_parks": [],
        "phone": "+1 734-247-7678",
        "state": "Michigan",
        "website": "http://www.metroairport.com/",
        "zip_code": "48242"
    },
    {
        "address": "106 National Guard Street Northwest",
        "city": "Devils Lake",
        "iata_code": "DVL",
        "icao_code": "KDVL",
        "id": 171,
        "latitude": 48.109062,
        "longitude": -98.9039,
        "name": "Devils Lake Regional Airport (Devils Lake Municipal Airport)",
        "nearest_cities": [],
        "nearest_parks": [],
        "phone": "+1 701-662-5833",
        "state": "North Dakota",
        "website": "http://www.devilslakeairport.com/",
        "zip_code": "58301"
    },
    {
        "address": "11120 42nd Street Southwest",
        "city": "Dickinson",
        "iata_code": "DIK",
        "icao_code": "KDIK",
        "id": 172,
        "latitude": 46.801666,
        "longitude": -102.792885,
        "name": "Dickinson Theodore Roosevelt Regional Airport",
        "nearest_cities": [],
        "nearest_parks": [],
        "phone": "+1 701-483-1062",
        "state": "North Dakota",
        "website": "http://www.dickinsonairport.com/",
        "zip_code": "58601"
    },
    {
        "address": "803 Airport Road",
        "city": "Dillingham",
        "iata_code": "DLG",
        "icao_code": "PADL",
        "id": 173,
        "latitude": 59.04594,
        "longitude": -158.50444,
        "name": "Dillingham Airport",
        "nearest_cities": [],
        "nearest_parks": [],
        "phone": "+1 907-842-5511",
        "state": "Alaska",
        "website": "",
        "zip_code": "99576"
    },
    {
        "address": "100 Airport Road",
        "city": "Dodge City",
        "iata_code": "DDC",
        "icao_code": "KDDC",
        "id": 174,
        "latitude": 37.765873,
        "longitude": -99.9669,
        "name": "Dodge City Regional Airport",
        "nearest_cities": [],
        "nearest_parks": [],
        "phone": "+1 620-225-8170",
        "state": "Kansas",
        "website": "http://www.dodgecity.org/index.aspx?nid=60",
        "zip_code": "67801"
    },
    {
        "address": "800 Airport Drive",
        "city": "Midland City",
        "iata_code": "DHN",
        "icao_code": "KDHN",
        "id": 175,
        "latitude": 31.321655,
        "longitude": -85.45243,
        "name": "Dothan Regional Airport",
        "nearest_cities": [],
        "nearest_parks": [],
        "phone": "+1 334-983-8100",
        "state": "Alabama",
        "website": "http://www.flydothan.com/",
        "zip_code": "36350"
    },
    {
        "address": "377 Aviation Way",
        "city": "Reynoldsville",
        "iata_code": "DUJ",
        "icao_code": "KDUJ",
        "id": 176,
        "latitude": 41.182426,
        "longitude": -78.89235,
        "name": "DuBois Regional Airport",
        "nearest_cities": [],
        "nearest_parks": [],
        "phone": "+1 814-328-5311",
        "state": "Pennsylvania",
        "website": "http://www.duboisairport.com/",
        "zip_code": "15851"
    },
    {
        "address": " ",
        "city": "Dubuque",
        "iata_code": "DBQ",
        "icao_code": "KDBQ",
        "id": 177,
        "latitude": 42.39384,
        "longitude": -90.70062,
        "name": "Dubuque Regional Airport",
        "nearest_cities": [],
        "nearest_parks": [],
        "phone": "+1 563-589-4128",
        "state": "Iowa",
        "website": "http://flydbq.com/",
        "zip_code": "52003"
    },
    {
        "address": "4701 Grinden Drive",
        "city": "Duluth",
        "iata_code": "DLH",
        "icao_code": "KDLH",
        "id": 178,
        "latitude": 46.84211,
        "longitude": -92.18754,
        "name": "Duluth International Airport",
        "nearest_cities": [],
        "nearest_parks": [],
        "phone": "+1 218-727-2968",
        "state": "Minnesota",
        "website": "http://www.duluthairport.com/",
        "zip_code": "55811"
    },
    {
        "address": "1000 Airport Road",
        "city": "Durango",
        "iata_code": "DRO",
        "icao_code": "KDRO",
        "id": 179,
        "latitude": 37.150608,
        "longitude": -107.75326,
        "name": "Durango\u2013La Plata County Airport",
        "nearest_cities": [],
        "nearest_parks": [],
        "phone": "+1 970-382-6050",
        "state": "Colorado",
        "website": "http://www.durangogov.org/index.aspx?nid=202",
        "zip_code": "81303"
    },
    {
        "address": "2400 John Brantley Boulevard",
        "city": "Morrisville",
        "iata_code": "RDU",
        "icao_code": "KRDU",
        "id": 180,
        "latitude": 35.880077,
        "longitude": -78.787994,
        "name": "Raleigh\u2013Durham International Airport",
        "nearest_cities": [],
        "nearest_parks": [],
        "phone": "+1 919-840-2123",
        "state": "North Carolina",
        "website": "http://www.rdu.com/",
        "zip_code": "27560"
    },
    {
        "address": "2400 John Brantley Boulevard",
        "city": "Morrisville",
        "iata_code": "RDU",
        "icao_code": "KRDU",
        "id": 181,
        "latitude": 35.880077,
        "longitude": -78.787994,
        "name": "Raleigh\u2013Durham International Airport",
        "nearest_cities": [],
        "nearest_parks": [],
        "phone": "+1 919-840-2123",
        "state": "North Carolina",
        "website": "http://www.rdu.com/",
        "zip_code": "27560"
    },
    {
        "address": " Airport Beach Road",
        "city": "Unalaska",
        "iata_code": "DUT",
        "icao_code": "PADU",
        "id": 182,
        "latitude": 53.898342,
        "longitude": -166.54422,
        "name": "Unalaska Airport",
        "nearest_cities": [],
        "nearest_parks": [],
        "phone": "+1 907-581-1786",
        "state": "Alaska",
        "website": "http://ci.unalaska.ak.us/portsandharbors/page/tom-madsen-airport",
        "zip_code": "99692"
    },
    {
        "address": "3311 Airport Road",
        "city": "Allentown",
        "iata_code": "ABE",
        "icao_code": "KABE",
        "id": 183,
        "latitude": 40.651833,
        "longitude": -75.441414,
        "name": "Lehigh Valley International Airport",
        "nearest_cities": [],
        "nearest_parks": [],
        "phone": "+1 610-266-6000",
        "state": "Pennsylvania",
        "website": "http://www.flylvia.com/",
        "zip_code": "18109"
    },
    {
        "address": "3800 Starr Avenue",
        "city": "Eau Claire",
        "iata_code": "EAU",
        "icao_code": "KEAU",
        "id": 184,
        "latitude": 44.86749,
        "longitude": -91.48271,
        "name": "Chippewa Valley Regional Airport",
        "nearest_cities": [],
        "nearest_parks": [],
        "phone": "+1 715-839-4900",
        "state": "Wisconsin",
        "website": "http://www.chippewavalleyairport.com/",
        "zip_code": "54703"
    },
    {
        "address": " ",
        "city": "Craig",
        "iata_code": "EDA",
        "icao_code": "",
        "id": 185,
        "latitude": 55.96629,
        "longitude": -133.79672,
        "name": "Edna Bay Seaplane Base",
        "nearest_cities": [],
        "nearest_parks": [],
        "phone": "",
        "state": "Alaska",
        "website": "",
        "zip_code": "99921"
    },
    {
        "address": " ",
        "city": "Eek",
        "iata_code": "EEK",
        "icao_code": "PAEE",
        "id": 186,
        "latitude": 60.214733,
        "longitude": -162.0436,
        "name": "Eek Airport",
        "nearest_cities": [],
        "nearest_parks": [],
        "phone": "",
        "state": "Alaska",
        "website": "",
        "zip_code": "99578"
    },
    {
        "address": " ",
        "city": "Clark's Point",
        "iata_code": "KKU",
        "icao_code": "",
        "id": 187,
        "latitude": 58.812214,
        "longitude": -158.56062,
        "name": "Ekuk Airport",
        "nearest_cities": [],
        "nearest_parks": [],
        "phone": "+1 907-842-5218",
        "state": "Alaska",
        "website": "",
        "zip_code": "99569"
    },
    {
        "address": "1 Postal Way",
        "city": "Ekwok",
        "iata_code": "KEK",
        "icao_code": "",
        "id": 188,
        "latitude": 59.35653,
        "longitude": -157.47145,
        "name": "Ekwok Airport",
        "nearest_cities": [],
        "nearest_parks": [],
        "phone": "+1 907-269-0747",
        "state": "Alaska",
        "website": "",
        "zip_code": "99580"
    },
    {
        "address": "1099 Airport Road",
        "city": "Imperial",
        "iata_code": "IPL",
        "icao_code": "KIPL",
        "id": 189,
        "latitude": 32.835205,
        "longitude": -115.572395,
        "name": "Imperial County Airport (Boley Field)",
        "nearest_cities": [],
        "nearest_parks": [],
        "phone": "+1 760-355-7944",
        "state": "California",
        "website": "",
        "zip_code": "92251"
    },
    {
        "address": "418 Airport Drive",
        "city": "El Dorado",
        "iata_code": "ELD",
        "icao_code": "KELD",
        "id": 190,
        "latitude": 33.219143,
        "longitude": -92.81117,
        "name": "South Arkansas Regional Airport at Goodwin Field",
        "nearest_cities": [],
        "nearest_parks": [],
        "phone": "+1 870-881-4192",
        "state": "Arkansas",
        "website": "http://www.flyeld.com/",
        "zip_code": "71730"
    },
    {
        "address": "6701 Convair Rd",
        "city": "El Paso",
        "iata_code": "ELP",
        "icao_code": "KELP",
        "id": 191,
        "latitude": 31.805336,
        "longitude": -106.38243,
        "name": "El Paso International Airport",
        "nearest_cities": [],
        "nearest_parks": [],
        "phone": "+1 915-212-0330",
        "state": "Texas",
        "website": "http://flyelpaso.com/",
        "zip_code": "79925"
    },
    {
        "address": " ",
        "city": "Elfin Cove",
        "iata_code": "ELV",
        "icao_code": "PAEL",
        "id": 192,
        "latitude": 58.195183,
        "longitude": -136.3474,
        "name": "Elfin Cove Seaplane Base",
        "nearest_cities": [],
        "nearest_parks": [],
        "phone": "+1 907-465-1786",
        "state": "Alaska",
        "website": "",
        "zip_code": "99825"
    },
    {
        "address": " Elim Moses Point",
        "city": "Elim",
        "iata_code": "ELI",
        "icao_code": "PFEL",
        "id": 193,
        "latitude": 64.61442,
        "longitude": -162.27171,
        "name": "Elim Airport",
        "nearest_cities": [],
        "nearest_parks": [],
        "phone": "+1 907-624-3261",
        "state": "Alaska",
        "website": "https://nfdc.faa.gov/nfdcApps/services/ajv5/airportDisplay.jsp?airportId=eli",
        "zip_code": "99739"
    },
    {
        "address": "975 Terminal Way",
        "city": "Elko",
        "iata_code": "EKO",
        "icao_code": "KEKO",
        "id": 194,
        "latitude": 40.82782,
        "longitude": -115.78621,
        "name": "Elko Regional Airport",
        "nearest_cities": [],
        "nearest_parks": [],
        "phone": "+1 775-777-7190",
        "state": "Nevada",
        "website": "http://www.flyelkonevada.com/",
        "zip_code": "89801"
    },
    {
        "address": "276 Sing Sing Road",
        "city": "Horseheads",
        "iata_code": "ELM",
        "icao_code": "KELM",
        "id": 195,
        "latitude": 42.15987,
        "longitude": -76.89364,
        "name": "Elmira/Corning Regional Airport",
        "nearest_cities": [],
        "nearest_parks": [],
        "phone": "+1 607-739-5621",
        "state": "New York",
        "website": "http://ecairport.com/",
        "zip_code": "14845"
    },
    {
        "address": "1583 Minnesota 1",
        "city": "Ely",
        "iata_code": "LYU",
        "icao_code": "KELO",
        "id": 196,
        "latitude": 47.82369,
        "longitude": -91.8293,
        "name": "Ely Municipal Airport (FAA: ELO)",
        "nearest_cities": [],
        "nearest_parks": [],
        "phone": "+1 218-365-5600",
        "state": "Minnesota",
        "website": "http://www.ely.mn.us/index.asp?Type=B_BASIC&SEC=%7B936B252D-C48B-42BD-B996-37F320A6CFF7%7D",
        "zip_code": "55731"
    },
    {
        "address": " ",
        "city": "Emmonak",
        "iata_code": "EMK",
        "icao_code": "PAEM",
        "id": 197,
        "latitude": 62.777874,
        "longitude": -164.49405,
        "name": "Emmonak Airport (FAA: ENM)",
        "nearest_cities": [],
        "nearest_parks": [],
        "phone": "+1 907-624-3261",
        "state": "Alaska",
        "website": "",
        "zip_code": "99581"
    },
    {
        "address": "2534 Airport Road",
        "city": "Johnson City",
        "iata_code": "BGM",
        "icao_code": "KBGM",
        "id": 198,
        "latitude": 42.208107,
        "longitude": -75.98206,
        "name": "Greater Binghamton Airport (Edwin A. Link Field)",
        "nearest_cities": [],
        "nearest_parks": [],
        "phone": "+1 607-763-4471",
        "state": "New York",
        "website": "http://www.flybgm.com/",
        "zip_code": "13790"
    },
    {
        "address": "1026 South 66th Street",
        "city": "Enid",
        "iata_code": "WDG",
        "icao_code": "KWDG",
        "id": 199,
        "latitude": 36.37859,
        "longitude": -97.79068,
        "name": "Enid Woodring Regional Airport",
        "nearest_cities": [],
        "nearest_parks": [],
        "phone": "+1 580-234-5476",
        "state": "Oklahoma",
        "website": "http://www.enid.org/departments/a-e/airport",
        "zip_code": "73701"
    },
    {
        "address": "4411 West 12th Street",
        "city": "Erie",
        "iata_code": "ERI",
        "icao_code": "KERI",
        "id": 200,
        "latitude": 42.08396,
        "longitude": -80.172165,
        "name": "Erie International Airport (Tom Ridge Field)",
        "nearest_cities": [],
        "nearest_parks": [],
        "phone": "+1 814-833-4258",
        "state": "Pennsylvania",
        "website": "http://www.erieairport.org/",
        "zip_code": "16505"
    },
    {
        "address": "3300 Airport Road",
        "city": "Escanaba",
        "iata_code": "ESC",
        "icao_code": "KESC",
        "id": 201,
        "latitude": 45.71792,
        "longitude": -87.09451,
        "name": "Delta County Airport",
        "nearest_cities": [],
        "nearest_parks": [],
        "phone": "+1 906-786-4902",
        "state": "Michigan",
        "website": "https://deltacountymi.org/airport/",
        "zip_code": "49829"
    },
    {
        "address": "28801 Douglas Drive",
        "city": "Eugene",
        "iata_code": "EUG",
        "icao_code": "KEUG",
        "id": 202,
        "latitude": 44.12178,
        "longitude": -123.2159,
        "name": "Eugene Airport (Mahlon Sweet Airport)",
        "nearest_cities": [],
        "nearest_parks": [],
        "phone": "+1 541-682-5544",
        "state": "Oregon",
        "website": "http://www.flyeug.com/",
        "zip_code": "97402"
    },
    {
        "address": "3561 Boeing Avenue",
        "city": "McKinleyville",
        "iata_code": "ACV",
        "icao_code": "KACV",
        "id": 203,
        "latitude": 40.97092,
        "longitude": -124.10658,
        "name": "Arcata-Eureka Airport",
        "nearest_cities": [],
        "nearest_parks": [],
        "phone": "+1 707-839-5401",
        "state": "California",
        "website": "http://co.humboldt.ca.us/aviation/content.asp?page=airport_and_airline_information.htm",
        "zip_code": "95519"
    },
    {
        "address": " ",
        "city": "Eureka",
        "iata_code": "EUE",
        "icao_code": "",
        "id": 204,
        "latitude": 39.60262,
        "longitude": -116.00565,
        "name": "Eureka Airport (FAA: 05U)",
        "nearest_cities": [],
        "nearest_parks": [],
        "phone": "+1 775-237-6100",
        "state": "Nevada",
        "website": "http://www.airnav.com/airport/05U",
        "zip_code": "89316"
    },
    {
        "address": "7801 Bussing Drive",
        "city": "Evansville",
        "iata_code": "EVV",
        "icao_code": "KEVV",
        "id": 205,
        "latitude": 38.043365,
        "longitude": -87.527176,
        "name": "Evansville Regional Airport",
        "nearest_cities": [],
        "nearest_parks": [],
        "phone": "+1 812-421-4401",
        "state": "Indiana",
        "website": "http://www.flyevv.com/",
        "zip_code": "47725"
    },
    {
        "address": "6450 Airport Way",
        "city": "Fairbanks",
        "iata_code": "FAI",
        "icao_code": "PAFA",
        "id": 206,
        "latitude": 64.816414,
        "longitude": -147.86351,
        "name": "Fairbanks International Airport",
        "nearest_cities": [],
        "nearest_parks": [],
        "phone": "+1 907-474-2500",
        "state": "Alaska",
        "website": "http://www.dot.state.ak.us/faiiap/",
        "zip_code": "99709"
    },
    {
        "address": "2801 32nd Avenue North",
        "city": "Fargo",
        "iata_code": "FAR",
        "icao_code": "KFAR",
        "id": 207,
        "latitude": 46.92193,
        "longitude": -96.81807,
        "name": "Hector International Airport",
        "nearest_cities": [],
        "nearest_parks": [],
        "phone": "+1 701-241-8168",
        "state": "North Dakota",
        "website": "http://fargoairport.com/",
        "zip_code": "58102"
    },
    {
        "address": "4500 South School Avenue",
        "city": "Fayetteville",
        "iata_code": "FYV",
        "icao_code": "KFYV",
        "id": 208,
        "latitude": 36.003418,
        "longitude": -94.17195,
        "name": "Drake Field (Fayetteville Executive Airport)",
        "nearest_cities": [],
        "nearest_parks": [],
        "phone": "+1 479-718-7642",
        "state": "Arkansas",
        "website": "http://www.fayetteville-ar.gov/668/About-Drake-Field",
        "zip_code": "72701"
    },
    {
        "address": "1 Airport Boulevard",
        "city": "Bentonville",
        "iata_code": "XNA",
        "icao_code": "KXNA",
        "id": 209,
        "latitude": 36.27866,
        "longitude": -94.30429,
        "name": "Northwest Arkansas Regional Airport",
        "nearest_cities": [],
        "nearest_parks": [],
        "phone": "+1 479-205-1000",
        "state": "Arkansas",
        "website": "http://www.nwara.com/",
        "zip_code": "72712"
    },
    {
        "address": "3003 Control Tower Road",
        "city": "Fayetteville",
        "iata_code": "FAY",
        "icao_code": "KFAY",
        "id": 210,
        "latitude": 34.99258,
        "longitude": -78.88467,
        "name": "Fayetteville Regional Airport (Grannis Field)",
        "nearest_cities": [],
        "nearest_parks": [],
        "phone": "+1 910-321-7540",
        "state": "North Carolina",
        "website": "https://www.signatureflight.com/locations/FAY",
        "zip_code": "28306"
    },
    {
        "address": "6200 South Pulliam Drive",
        "city": "Flagstaff",
        "iata_code": "FLG",
        "icao_code": "KFLG",
        "id": 211,
        "latitude": 35.140396,
        "longitude": -111.670975,
        "name": "Flagstaff Pulliam Airport",
        "nearest_cities": [],
        "nearest_parks": [],
        "phone": "+1 928-213-2930",
        "state": "Arizona",
        "website": "http://www.flagstaff.az.gov/",
        "zip_code": "86005"
    },
    {
        "address": "3425 West Bristol Road",
        "city": "Flint",
        "iata_code": "FNT",
        "icao_code": "KFNT",
        "id": 212,
        "latitude": 42.973423,
        "longitude": -83.73889,
        "name": "Bishop International Airport",
        "nearest_cities": [],
        "nearest_parks": [],
        "phone": "+1 810-235-6560",
        "state": "Michigan",
        "website": "http://www.bishopairport.org/",
        "zip_code": "48507"
    },
    {
        "address": "2100 Terminal Drive",
        "city": "Florence",
        "iata_code": "FLO",
        "icao_code": "KFLO",
        "id": 213,
        "latitude": 34.19319,
        "longitude": -79.728195,
        "name": "Florence Regional Airport",
        "nearest_cities": [],
        "nearest_parks": [],
        "phone": "+1 843-968-4047",
        "state": "South Carolina",
        "website": "http://www.flyflo.us/",
        "zip_code": "29501"
    },
    {
        "address": "1729 T Ed Campbell Drive",
        "city": "Muscle Shoals",
        "iata_code": "MSL",
        "icao_code": "KMSL",
        "id": 214,
        "latitude": 34.74519,
        "longitude": -87.611725,
        "name": "Northwest Alabama Regional Airport",
        "nearest_cities": [],
        "nearest_parks": [],
        "phone": "+1 256-383-2270",
        "state": "Alabama",
        "website": "http://www.seaportair.com/",
        "zip_code": "35661"
    },
    {
        "address": "4900 Earhart Road",
        "city": "Loveland",
        "iata_code": "FNL",
        "icao_code": "KFNL",
        "id": 215,
        "latitude": 40.449867,
        "longitude": -105.00544,
        "name": "Fort Collins\u2013Loveland Municipal Airport",
        "nearest_cities": [],
        "nearest_parks": [],
        "phone": "+1 970-962-2850",
        "state": "Colorado",
        "website": "http://www.flynoco.com/",
        "zip_code": "80538"
    },
    {
        "address": "1639 Nelson Avenue",
        "city": "Fort Dodge",
        "iata_code": "FOD",
        "icao_code": "KFOD",
        "id": 217,
        "latitude": 42.552433,
        "longitude": -94.18903,
        "name": "Fort Dodge Regional Airport",
        "nearest_cities": [],
        "nearest_parks": [],
        "phone": "+1 515-573-3881",
        "state": "Iowa",
        "website": "http://www.fortdodgeiowa.org/airport",
        "zip_code": "50501"
    },
    {
        "address": "100 Terminal Drive",
        "city": "Fort Lauderdale",
        "iata_code": "FLL",
        "icao_code": "KFLL",
        "id": 218,
        "latitude": 26.074234,
        "longitude": -80.150604,
        "name": "Fort Lauderdale\u2013Hollywood International Airport",
        "nearest_cities": [],
        "nearest_parks": [],
        "phone": "+1 954-359-1200",
        "state": "Florida",
        "website": "http://www.fll.net/",
        "zip_code": "33315"
    },
    {
        "address": "5017 Iowa Avenue",
        "city": "Fort Leonard Wood",
        "iata_code": "TBN",
        "icao_code": "KTBN",
        "id": 219,
        "latitude": 37.732815,
        "longitude": -92.1368,
        "name": "Waynesville-St. Robert Regional Airport (Forney Field)",
        "nearest_cities": [],
        "nearest_parks": [],
        "phone": "+1 573-329-4216",
        "state": "Missouri",
        "website": "http://www.flyflw.com/",
        "zip_code": "65473"
    },
    {
        "address": "11000 Terminal Access Road",
        "city": "Fort Myers",
        "iata_code": "RSW",
        "icao_code": "KRSW",
        "id": 220,
        "latitude": 26.533705,
        "longitude": -81.75531,
        "name": "Southwest Florida International Airport",
        "nearest_cities": [],
        "nearest_parks": [],
        "phone": "+1 239-590-4800",
        "state": "Florida",
        "website": "http://flylcpa.com/",
        "zip_code": "33913"
    },
    {
        "address": "6700 McKennon Boulevard",
        "city": "Fort Smith",
        "iata_code": "FSM",
        "icao_code": "KFSM",
        "id": 221,
        "latitude": 35.33664,
        "longitude": -94.36422,
        "name": "Fort Smith Regional Airport",
        "nearest_cities": [],
        "nearest_parks": [],
        "phone": "+1 479-452-7000",
        "state": "Arkansas",
        "website": "http://www.fortsmithairport.com/",
        "zip_code": "72903"
    },